,continent,country_code,location,capital,latitude,longitude,last_updated_date,total_cases,new_cases,total_deaths,new_deaths
0,Asia,AFG,Afghanistan,Kabul,33.00000000,65.00000000,2024-08-04,235214.0,0.0,7998.0,0.0
1,,OWID_AFR,Africa,,,,2024-08-04,13145380.0,36.0,259117.0,0.0
2,Europe,ALB,Albania,Tirana,41.00000000,20.00000000,2024-08-04,335047.0,0.0,3605.0,0.0
3,Africa,DZA,Algeria,Algiers,28.00000000,3.00000000,2024-08-04,272139.0,18.0,6881.0,0.0
4,Oceania,ASM,American Samoa,Pago Pago,-14.33333333,-170.00000000,2024-08-04,8359.0,0.0,34.0,0.0
5,Europe,AND,Andorra,Andorra la Vella,42.50000000,1.50000000,2024-08-04,48015.0,0.0,159.0,0.0
6,Africa,AGO,Angola,Luanda,-12.50000000,18.50000000,2024-08-04,107481.0,0.0,1937.0,0.0
7,North America,AIA,Anguilla,The Valley,18.25000000,-63.16666666,2024-08-04,3904.0,0.0,12.0,0.0
8,North America,ATG,Antigua and Barbuda,St. John's,17.05000000,-61.80000000,2024-08-04,9106.0,0.0,146.0,0.0
9,South America,ARG,Argentina,Buenos Aires,-34.00000000,-64.00000000,2024-08-04,10101218.0,54.0,130663.0,1.0
10,Asia,ARM,Armenia,Yerevan,40.00000000,45.00000000,2024-08-04,452273.0,0.0,8777.0,0.0
11,North America,ABW,Aruba,Oranjestad,12.50000000,-69.96666666,2024-08-04,44224.0,0.0,292.0,0.0
12,,OWID_ASI,Asia,,,,2024-08-14,301499099.0,4515.0,1637249.0,17.0
13,Oceania,AUS,Australia,Canberra,-27.00000000,133.00000000,2024-08-04,11861161.0,0.0,25236.0,0.0
14,Europe,AUT,Austria,Vienna,47.33333333,13.33333333,2024-08-04,6082444.0,15.0,22534.0,0.0
15,Asia,AZE,Azerbaijan,Baku,40.50000000,47.50000000,2024-08-04,835757.0,63.0,10353.0,0.0
16,North America,BHS,Bahamas,Nassau,24.25000000,-76.00000000,2024-08-04,39127.0,0.0,849.0,0.0
17,Asia,BHR,Bahrain,Manama,26.00000000,50.55000000,2024-08-04,696614.0,0.0,1536.0,0.0
18,Asia,BGD,Bangladesh,Dhaka,24.00000000,90.00000000,2024-08-04,2051348.0,40.0,29499.0,0.0
19,North America,BRB,Barbados,Bridgetown,13.16666666,-59.53333333,2024-08-04,108582.0,57.0,593.0,0.0
20,Europe,BLR,Belarus,Minsk,53.00000000,28.00000000,2024-08-04,994037.0,0.0,7118.0,0.0
21,Europe,BEL,Belgium,Brussels,50.83333333,4.00000000,2024-08-04,4872829.0,1277.0,34339.0,0.0
22,North America,BLZ,Belize,Belmopan,17.25000000,-88.75000000,2024-08-04,71414.0,0.0,688.0,0.0
23,Africa,BEN,Benin,Porto-Novo,9.50000000,2.25000000,2024-08-04,28036.0,0.0,163.0,0.0
24,North America,BMU,Bermuda,Hamilton,32.33333333,-64.75000000,2024-08-04,18860.0,0.0,165.0,0.0
25,Asia,BTN,Bhutan,Thimphu,27.50000000,90.50000000,2024-08-04,62697.0,0.0,21.0,0.0
26,South America,BOL,Bolivia,Sucre,-17.00000000,-65.00000000,2024-08-04,1212147.0,2.0,22387.0,0.0
27,North America,BES,Bonaire Sint Eustatius and Saba,Kralendijk,12.15000000,-68.26666700,2024-08-04,11922.0,0.0,41.0,0.0
28,Europe,BIH,Bosnia and Herzegovina,Sarajevo,44.00000000,18.00000000,2024-08-04,403666.0,0.0,16392.0,0.0
29,Africa,BWA,Botswana,Gaborone,-22.00000000,24.00000000,2024-08-04,330696.0,0.0,2801.0,0.0
30,South America,BRA,Brazil,Brasilia,-10.00000000,-55.00000000,2024-08-04,37511921.0,0.0,702116.0,0.0
31,North America,VGB,British Virgin Islands,Road Town,18.43138300,-64.62305000,2024-08-04,7557.0,0.0,64.0,0.0
32,Asia,BRN,Brunei,Bandar Seri Begawan,4.50000000,114.66666666,2024-08-04,347723.0,288.0,179.0,1.0
33,Europe,BGR,Bulgaria,Sofia,43.00000000,25.00000000,2024-08-04,1329988.0,257.0,38700.0,0.0
34,Africa,BFA,Burkina Faso,Ouagadougou,13.00000000,-2.00000000,2024-08-04,22139.0,0.0,400.0,0.0
35,Africa,BDI,Burundi,Bujumbura,-3.50000000,30.00000000,2024-08-04,54569.0,0.0,15.0,0.0
36,Asia,KHM,Cambodia,Phnom Penh,13.00000000,105.00000000,2024-08-04,139319.0,6.0,3056.0,0.0
37,Africa,CMR,Cameroon,Yaounde,6.00000000,12.00000000,2024-08-04,125246.0,0.0,1974.0,0.0
38,North America,CAN,Canada,Ottawa,60.00000000,-95.00000000,2024-08-04,4819055.0,38.0,55282.0,0.0
39,Africa,CPV,Cape Verde,Praia,16.00000000,-24.00000000,2024-08-04,64474.0,0.0,417.0,0.0
40,North America,CYM,Cayman Islands,George Town,19.50000000,-80.50000000,2024-08-04,31472.0,0.0,37.0,0.0
41,Africa,CAF,Central African Republic,Bangui,7.00000000,21.00000000,2024-08-04,15441.0,0.0,113.0,0.0
42,Africa,TCD,Chad,N'Djamena,15.00000000,19.00000000,2024-08-04,7702.0,0.0,194.0,0.0
43,South America,CHL,Chile,Santiago,-30.00000000,-71.00000000,2024-08-04,5401126.0,100.0,62730.0,0.0
44,Asia,CHN,China,Beijing,35.00000000,105.00000000,2024-08-04,99373219.0,2087.0,122304.0,15.0
45,South America,COL,Colombia,Bogotá,4.00000000,-72.00000000,2024-08-04,6391876.0,976.0,142727.0,0.0
46,Africa,COM,Comoros,Moroni,-12.16666666,44.25000000,2024-08-04,9109.0,0.0,160.0,0.0
47,Africa,COG,Congo,Brazzaville,-1.00000000,15.00000000,2024-08-04,25227.0,0.0,389.0,0.0
48,Oceania,COK,Cook Islands,Avarua,-21.23333333,-159.76666666,2024-08-04,7345.0,1.0,2.0,0.0
49,North America,CRI,Costa Rica,San Jose,10.00000000,-84.00000000,2024-08-04,1234701.0,0.0,9372.0,0.0
50,Africa,CIV,Cote d'Ivoire,Yamoussoukro,8.00000000,-5.00000000,2024-08-04,88434.0,0.0,835.0,0.0
51,Europe,HRV,Croatia,Zagreb,45.16666666,15.50000000,2024-08-04,1317144.0,0.0,18752.0,0.0
52,North America,CUB,Cuba,Havana,21.50000000,-80.00000000,2024-08-04,1113662.0,0.0,8530.0,0.0
53,North America,CUW,Curacao,Willemstad,12.11666700,-68.93333300,2024-08-04,45883.0,0.0,305.0,0.0
54,Europe,CYP,Cyprus,Nicosia,35.00000000,33.00000000,2024-08-04,696410.0,0.0,1451.0,0.0
55,Europe,CZE,Czechia,Prague,49.75000000,15.50000000,2024-08-12,4761919.0,571.0,43509.0,1.0
56,Africa,COD,Democratic Republic of Congo,Kinshasa,0.00000000,25.00000000,2024-08-04,101009.0,0.0,1474.0,0.0
57,Europe,DNK,Denmark,Copenhagen,56.00000000,10.00000000,2024-08-04,3435679.0,0.0,9693.0,0.0
58,Africa,DJI,Djibouti,Djibouti,11.50000000,43.00000000,2024-08-04,15690.0,0.0,189.0,0.0
59,North America,DMA,Dominica,Roseau,15.41666666,-61.33333333,2024-08-04,16047.0,0.0,74.0,0.0
60,North America,DOM,Dominican Republic,Santo Domingo,19.00000000,-70.66666666,2024-08-04,661103.0,0.0,4384.0,0.0
61,Asia,TLS,East Timor,Dili,-8.83333333,125.91666666,2024-08-04,23460.0,0.0,138.0,0.0
62,South America,ECU,Ecuador,Quito,-2.00000000,-77.50000000,2024-08-04,1077445.0,157.0,36050.0,0.0
63,Africa,EGY,Egypt,Cairo,27.00000000,30.00000000,2024-08-04,516023.0,0.0,24830.0,0.0
64,North America,SLV,El Salvador,San Salvador,13.83333333,-88.91666666,2024-08-04,201920.0,3.0,4230.0,0.0
65,Africa,GNQ,Equatorial Guinea,Malabo,2.00000000,10.00000000,2024-08-04,17130.0,0.0,183.0,0.0
66,Africa,ERI,Eritrea,Asmara,15.00000000,39.00000000,2024-08-04,10189.0,0.0,103.0,0.0
67,Europe,EST,Estonia,Tallinn,59.00000000,26.00000000,2024-08-12,610471.0,0.0,2998.0,0.0
68,Africa,SWZ,Eswatini,Mbabane,-26.50000000,31.50000000,2024-08-04,75356.0,0.0,1427.0,0.0
69,Africa,ETH,Ethiopia,Addis Ababa,8.00000000,38.00000000,2024-08-04,501193.0,0.0,7574.0,0.0
70,,OWID_EUR,Europe,,,,2024-08-14,252916868.0,39047.0,2102483.0,162.0
71,,OWID_EUN,European Union (27),,,,2024-08-14,185822587.0,25642.0,1262988.0,150.0
72,South America,FLK,Falkland Islands,Stanley,-51.75000000,-59.00000000,2024-08-04,1923.0,0.0,0.0,0.0
73,Europe,FRO,Faroe Islands,Torshavn,62.00000000,-7.00000000,2024-08-04,34658.0,0.0,28.0,0.0
74,Oceania,FJI,Fiji,Suva,-18.00000000,175.00000000,2024-08-04,69047.0,0.0,885.0,0.0
75,Europe,FIN,Finland,Helsinki,64.00000000,26.00000000,2024-08-04,1499712.0,0.0,11466.0,0.0
76,Europe,FRA,France,Paris,46.00000000,2.00000000,2024-08-04,38997490.0,,168091.0,
77,South America,GUF,French Guiana,Cayenne,4.00000000,-53.00000000,2024-08-04,98041.0,0.0,413.0,0.0
78,Oceania,PYF,French Polynesia,Papeete,-15.00000000,-140.00000000,2024-08-04,79387.0,47.0,650.0,0.0
79,Africa,GAB,Gabon,Libreville,-1.00000000,11.75000000,2024-08-04,49051.0,0.0,307.0,0.0
80,Africa,GMB,Gambia,Banjul,13.46666666,-16.56666666,2024-08-04,12627.0,0.0,372.0,0.0
81,Asia,GEO,Georgia,Tbilisi,42.00000000,43.50000000,2024-08-04,1863615.0,0.0,17150.0,0.0
82,Europe,DEU,Germany,Berlin,51.00000000,9.00000000,2024-08-04,38437756.0,,174979.0,
83,Africa,GHA,Ghana,Accra,8.00000000,-2.00000000,2024-08-04,172062.0,0.0,1462.0,0.0
84,Europe,GIB,Gibraltar,Gibraltar,36.13333333,-5.35000000,2024-08-04,20550.0,0.0,113.0,0.0
85,Europe,GRC,Greece,Athens,39.00000000,22.00000000,2024-08-04,5673681.0,5818.0,39258.0,40.0
86,North America,GRL,Greenland,Nuuk,72.00000000,-40.00000000,2024-08-04,11971.0,0.0,21.0,0.0
87,North America,GRD,Grenada,St. George's,12.11666666,-61.66666666,2024-08-04,19693.0,0.0,238.0,0.0
88,North America,GLP,Guadeloupe,Basse-Terre,16.25000000,-61.58333300,2024-08-04,203235.0,0.0,1021.0,0.0
89,Oceania,GUM,Guam,Hagatna,13.46666666,144.78333333,2024-08-04,52287.0,0.0,419.0,0.0
90,North America,GTM,Guatemala,Guatemala City,15.50000000,-90.25000000,2024-08-04,1250371.0,1.0,20203.0,0.0
91,Europe,GGY,Guernsey,St Peter Port,49.46666666,-2.58333333,2024-08-04,35326.0,0.0,67.0,0.0
92,Africa,GIN,Guinea,Conakry,11.00000000,-10.00000000,2024-08-04,38572.0,0.0,468.0,0.0
93,Africa,GNB,Guinea-Bissau,Bissau,12.00000000,-15.00000000,2024-08-04,9614.0,0.0,177.0,0.0
94,South America,GUY,Guyana,Georgetown,5.00000000,-59.00000000,2024-08-04,74443.0,4.0,1302.0,0.0
95,North America,HTI,Haiti,Port-au-Prince,19.00000000,-72.41666666,2024-08-04,34456.0,0.0,860.0,0.0
96,,OWID_HIC,High-income countries,,,,2024-08-14,429044049.0,32293.0,2997359.0,786.0
97,North America,HND,Honduras,Tegucigalpa,15.00000000,-86.50000000,2024-08-04,472896.0,1.0,11114.0,0.0
98,Asia,HKG,Hong Kong,Hong Kong,22.25000000,114.16666666,2024-08-10,,,,
99,Europe,HUN,Hungary,Budapest,47.00000000,20.00000000,2024-08-04,2230800.0,143.0,49053.0,0.0
100,Europe,ISL,Iceland,Reykjavik,65.00000000,-18.00000000,2024-08-04,210374.0,27.0,186.0,0.0
101,Asia,IND,India,New Delhi,20.00000000,77.00000000,2024-08-12,45041748.0,313.0,533623.0,0.0
102,Asia,IDN,Indonesia,Jakarta,-5.00000000,120.00000000,2024-08-04,6829399.0,46.0,162059.0,0.0
103,Asia,IRN,Iran,Tehran,32.00000000,53.00000000,2024-08-04,7627863.0,0.0,146837.0,0.0
104,Asia,IRQ,Iraq,Baghdad,33.00000000,44.00000000,2024-08-04,2465545.0,0.0,25375.0,0.0
105,Europe,IRL,Ireland,Dublin,53.00000000,-8.00000000,2024-08-04,1745088.0,761.0,9744.0,9.0
106,Europe,IMN,Isle of Man,"Douglas, Isle of Man",54.25000000,-4.50000000,2024-08-04,38008.0,0.0,116.0,0.0
107,Asia,ISR,Israel,Jerusalem,31.50000000,34.75000000,2024-08-04,4841558.0,0.0,12707.0,0.0
108,Europe,ITA,Italy,Rome,42.83333333,12.83333333,2024-08-07,26781078.0,6350.0,197307.0,6.0
109,North America,JAM,Jamaica,Kingston,18.25000000,-77.50000000,2024-08-04,157181.0,12.0,3611.0,0.0
110,Asia,JPN,Japan,Tokyo,36.00000000,138.00000000,2024-08-04,33803572.0,0.0,74694.0,0.0
111,Europe,JEY,Jersey,Saint Helier,49.25000000,-2.16666666,2024-08-04,66391.0,0.0,161.0,0.0
112,Asia,JOR,Jordan,Amman,31.00000000,36.00000000,2024-08-04,1746997.0,0.0,14122.0,0.0
113,Asia,KAZ,Kazakhstan,Astana,48.00000000,68.00000000,2024-08-04,1504370.0,0.0,19072.0,0.0
114,Africa,KEN,Kenya,Nairobi,1.00000000,38.00000000,2024-08-04,344106.0,0.0,5689.0,0.0
115,Oceania,KIR,Kiribati,Tarawa,1.41666666,173.00000000,2024-08-04,5085.0,0.0,24.0,0.0
116,Europe,OWID_KOS,Kosovo,,,,2024-08-04,274279.0,0.0,3212.0,0.0
117,Asia,KWT,Kuwait,Kuwait City,29.50000000,45.75000000,2024-08-04,667290.0,0.0,2570.0,0.0
118,Asia,KGZ,Kyrgyzstan,Bishkek,41.00000000,75.00000000,2024-08-04,88953.0,0.0,1024.0,0.0
119,Asia,LAO,Laos,Vientiane,18.00000000,105.00000000,2024-08-04,219060.0,0.0,671.0,0.0
120,Europe,LVA,Latvia,Riga,57.00000000,25.00000000,2024-08-04,977765.0,0.0,7475.0,0.0
121,Asia,LBN,Lebanon,Beirut,33.83333333,35.83333333,2024-08-04,1239904.0,0.0,10947.0,0.0
122,Africa,LSO,Lesotho,Maseru,-29.50000000,28.50000000,2024-08-04,36138.0,0.0,709.0,0.0
123,Africa,LBR,Liberia,Monrovia,6.50000000,-9.50000000,2024-08-04,7930.0,0.0,294.0,0.0
124,Africa,LBY,Libya,Tripolis,25.00000000,17.00000000,2024-08-04,507269.0,0.0,6437.0,0.0
125,Europe,LIE,Liechtenstein,Vaduz,47.26666666,9.53333333,2024-08-04,21588.0,0.0,89.0,0.0
126,Europe,LTU,Lithuania,Vilnius,56.00000000,24.00000000,2024-08-14,1369355.0,807.0,9810.0,0.0
127,,OWID_LIC,Low-income countries,,,,2024-08-04,1944334.0,0.0,43529.0,0.0
128,,OWID_LMC,Lower-middle-income countries,,,,2024-08-12,91954400.0,598.0,1188026.0,0.0
129,Europe,LUX,Luxembourg,Luxembourg,49.75000000,6.16666666,2024-08-04,393542.0,190.0,1000.0,0.0
130,Africa,MDG,Madagascar,Antananarivo,-20.00000000,47.00000000,2024-08-04,68567.0,0.0,1428.0,0.0
131,Africa,MWI,Malawi,Lilongwe,-13.50000000,34.00000000,2024-08-04,89168.0,0.0,2686.0,0.0
132,Asia,MYS,Malaysia,Kuala Lumpur,2.50000000,112.50000000,2024-08-14,5309410.0,1085.0,37351.0,0.0
133,Asia,MDV,Maldives,Male,3.25000000,73.00000000,2024-08-04,186694.0,0.0,316.0,0.0
134,Africa,MLI,Mali,Bamako,17.00000000,-4.00000000,2024-08-04,33166.0,0.0,743.0,0.0
135,Europe,MLT,Malta,Valletta,35.83333333,14.58333333,2024-08-04,122796.0,80.0,922.0,1.0
136,Oceania,MHL,Marshall Islands,Majuro,9.00000000,168.00000000,2024-08-04,16297.0,0.0,17.0,0.0
137,North America,MTQ,Martinique,Fort-de-France,14.66666700,-61.00000000,2024-08-04,230354.0,0.0,1104.0,0.0
138,Africa,MRT,Mauritania,Nouakchott,20.00000000,-12.00000000,2024-08-04,63872.0,0.0,997.0,0.0
139,Africa,MUS,Mauritius,Port Louis,-20.28333333,57.55000000,2024-08-04,328167.0,0.0,1073.0,0.0
140,Africa,MYT,Mayotte,Mamoudzou,-12.83333333,45.16666666,2024-08-04,42027.0,0.0,187.0,0.0
141,North America,MEX,Mexico,Ciudad de México,23.00000000,-102.00000000,2024-08-04,7619458.0,340.0,334551.0,0.0
142,Oceania,FSM,Micronesia (country),Palikir,6.91666666,158.25000000,2024-08-04,31765.0,0.0,65.0,0.0
143,Europe,MDA,Moldova,Chisinau,47.00000000,29.00000000,2024-08-04,637520.0,743.0,12245.0,2.0
144,Europe,MCO,Monaco,Monaco,43.73333333,7.40000000,2024-08-04,17181.0,0.0,67.0,0.0
145,Asia,MNG,Mongolia,Ulan Bator,46.00000000,105.00000000,2024-08-04,1011489.0,0.0,2136.0,0.0
146,Europe,MNE,Montenegro,Podgorica,42.50000000,19.30000000,2024-08-04,251280.0,0.0,2654.0,0.0
147,North America,MSR,Montserrat,Plymouth,16.75000000,-62.20000000,2024-08-04,1403.0,0.0,8.0,0.0
148,Africa,MAR,Morocco,Rabat,32.00000000,-5.00000000,2024-08-04,1279115.0,0.0,16305.0,0.0
149,Africa,MOZ,Mozambique,Maputo,-18.25000000,35.00000000,2024-08-04,233843.0,0.0,2252.0,0.0
150,Asia,MMR,Myanmar,Nay Pyi Taw,22.00000000,98.00000000,2024-08-04,642885.0,26.0,19494.0,0.0
151,Africa,NAM,Namibia,Windhoek,-22.00000000,17.00000000,2024-08-04,172533.0,0.0,4108.0,0.0
152,Oceania,NRU,Nauru,Yaren,-0.53333333,166.91666666,2024-08-04,5393.0,0.0,1.0,0.0
153,Asia,NPL,Nepal,Kathmandu,28.00000000,84.00000000,2024-08-04,1003450.0,0.0,12031.0,0.0
154,Europe,NLD,Netherlands,Amsterdam,52.50000000,5.75000000,2024-08-04,8640008.0,383.0,22986.0,0.0
155,Oceania,NCL,New Caledonia,Noumea,-21.50000000,165.50000000,2024-08-04,80163.0,0.0,314.0,0.0
156,Oceania,NZL,New Zealand,Wellington,-41.00000000,174.00000000,2024-08-11,2639048.0,1730.0,4284.0,16.0
157,North America,NIC,Nicaragua,Managua,13.00000000,-85.00000000,2024-08-04,16185.0,2.0,245.0,0.0
158,Africa,NER,Niger,Niamey,16.00000000,8.00000000,2024-08-04,9518.0,0.0,315.0,0.0
159,Africa,NGA,Nigeria,Abuja,10.00000000,8.00000000,2024-08-04,267188.0,0.0,3155.0,0.0
160,Oceania,NIU,Niue,Alofi,-19.03333333,-169.86666666,2024-08-04,1074.0,0.0,0.0,0.0
161,,OWID_NAM,North America,,,,2024-08-04,124492666.0,454.0,1671178.0,619.0
162,Asia,PRK,North Korea,Pyongyang,40.00000000,127.00000000,2024-08-04,0.0,0.0,0.0,0.0
163,Europe,MKD,North Macedonia,Skopje,41.83333333,22.00000000,2024-08-04,350924.0,116.0,9978.0,0.0
164,Oceania,MNP,Northern Mariana Islands,Saipan,15.20000000,145.75000000,2024-08-04,14912.0,31.0,41.0,0.0
165,Europe,NOR,Norway,Oslo,62.00000000,10.00000000,2024-08-04,1512647.0,745.0,5732.0,0.0
166,,OWID_OCE,Oceania,,,,2024-08-11,15003352.0,1809.0,32918.0,16.0
167,Asia,OMN,Oman,Muscat,21.00000000,57.00000000,2024-08-04,399449.0,0.0,4628.0,0.0
168,Asia,PAK,Pakistan,Islamabad,30.00000000,70.00000000,2024-08-04,1580631.0,0.0,30656.0,0.0
169,Oceania,PLW,Palau,Melekeok,7.50000000,134.50000000,2024-08-04,6372.0,0.0,10.0,0.0
170,Asia,PSE,Palestine,East Jerusalem,31.90000000,35.20000000,2024-08-04,703228.0,0.0,5708.0,0.0
171,North America,PAN,Panama,Panama City,9.00000000,-80.00000000,2024-08-04,1044821.0,0.0,8748.0,0.0
172,Oceania,PNG,Papua New Guinea,Port Moresby,-6.00000000,147.00000000,2024-08-04,46864.0,0.0,670.0,0.0
173,South America,PRY,Paraguay,Asuncion,-23.00000000,-58.00000000,2024-08-04,735759.0,0.0,19880.0,0.0
174,South America,PER,Peru,Lima,-10.00000000,-76.00000000,2024-08-04,4526977.0,0.0,220975.0,0.0
175,Asia,PHL,Philippines,Manila,13.00000000,122.00000000,2024-08-04,4140383.0,0.0,66864.0,0.0
176,Oceania,PCN,Pitcairn,Adamstown,-25.06666666,-130.10000000,2024-08-04,4.0,0.0,0.0,0.0
177,Europe,POL,Poland,Warsaw,52.00000000,20.00000000,2024-08-04,6670799.0,2463.0,120726.0,4.0
178,Europe,PRT,Portugal,Lisbon,39.50000000,-8.00000000,2024-08-04,5664109.0,1055.0,28809.0,50.0
179,North America,PRI,Puerto Rico,San Juan,18.25000000,-66.50000000,2024-08-04,1252713.0,0.0,5938.0,0.0
180,Asia,QAT,Qatar,Doha,25.50000000,51.25000000,2024-08-04,514524.0,0.0,690.0,0.0
181,Africa,REU,Reunion,Saint-Denis,-21.15000000,55.50000000,2024-08-04,494595.0,0.0,921.0,0.0
182,Europe,ROU,Romania,Bucharest,46.00000000,25.00000000,2024-08-04,3541619.0,4633.0,68825.0,6.0
183,Europe,RUS,Russia,Moscow,60.00000000,100.00000000,2024-08-04,24268728.0,7777.0,403188.0,10.0
184,Africa,RWA,Rwanda,Kigali,-2.00000000,30.00000000,2024-08-04,133264.0,0.0,1468.0,0.0
185,North America,BLM,Saint Barthelemy,Gustavia,18.50000000,-63.41666666,2024-08-04,5507.0,0.0,5.0,0.0
186,Africa,SHN,Saint Helena,Jamestown,-15.95000000,-5.70000000,2024-08-04,2166.0,0.0,0.0,0.0
187,North America,KNA,Saint Kitts and Nevis,Basseterre,17.33333333,-62.75000000,2024-08-04,6607.0,0.0,46.0,0.0
188,North America,LCA,Saint Lucia,Castries,13.88333333,-60.96666666,2024-08-04,30282.0,0.0,410.0,0.0
189,North America,MAF,Saint Martin (French part),Marigot,18.08333333,-63.95000000,2024-08-04,12324.0,0.0,46.0,0.0
190,North America,SPM,Saint Pierre and Miquelon,Saint-Pierre,46.83333333,-56.33333333,2024-08-04,3426.0,0.0,2.0,0.0
191,North America,VCT,Saint Vincent and the Grenadines,Kingstown,13.25000000,-61.20000000,2024-08-04,9674.0,0.0,124.0,0.0
192,Oceania,WSM,Samoa,Apia,-13.58333333,-172.33333333,2024-08-04,17057.0,0.0,31.0,0.0
193,Europe,SMR,San Marino,San Marino,43.76666666,12.41666666,2024-08-04,25292.0,0.0,126.0,0.0
194,Africa,STP,Sao Tome and Principe,Sao Tome,1.00000000,7.00000000,2024-08-04,6771.0,0.0,80.0,0.0
195,Asia,SAU,Saudi Arabia,Riyadh,25.00000000,45.00000000,2024-08-04,841469.0,0.0,9646.0,0.0
196,Africa,SEN,Senegal,Dakar,14.00000000,-14.00000000,2024-08-04,89485.0,0.0,1971.0,0.0
197,Europe,SRB,Serbia,Belgrade,44.00000000,21.00000000,2024-08-04,2583470.0,0.0,18057.0,0.0
198,Africa,SYC,Seychelles,Victoria,-4.58333333,55.66666666,2024-08-04,51886.0,0.0,172.0,0.0
199,Africa,SLE,Sierra Leone,Freetown,8.50000000,-11.50000000,2024-08-04,7979.0,0.0,125.0,0.0
200,Asia,SGP,Singapore,Singapur,1.36666666,103.80000000,2024-08-04,3006155.0,0.0,2024.0,0.0
201,North America,SXM,Sint Maarten (Dutch part),Philipsburg,18.03333300,-63.05000000,2024-08-04,11051.0,0.0,92.0,0.0
202,Europe,SVK,Slovakia,Bratislava,48.66666666,19.50000000,2024-08-04,1878002.0,61.0,21227.0,1.0
203,Europe,SVN,Slovenia,Ljubljana,46.11666666,14.81666666,2024-08-04,1356582.0,148.0,10083.0,4.0
204,Oceania,SLB,Solomon Islands,Honiara,-8.00000000,159.00000000,2024-08-04,25954.0,0.0,199.0,0.0
205,Africa,SOM,Somalia,Mogadishu,10.00000000,49.00000000,2024-08-04,27334.0,0.0,1361.0,0.0
206,Africa,ZAF,South Africa,Pretoria,-29.00000000,24.00000000,2024-08-04,4072765.0,0.0,102595.0,0.0
207,,OWID_SAM,South America,,,,2024-08-04,68809418.0,1308.0,1354187.0,1.0
208,Asia,KOR,South Korea,Seoul,37.00000000,127.50000000,2024-08-04,34571873.0,0.0,35934.0,0.0
209,Africa,SSD,South Sudan,Juba,7.00000000,30.00000000,2024-08-04,18823.0,0.0,147.0,0.0
210,Europe,ESP,Spain,Madrid,40.00000000,-4.00000000,2024-08-04,13980340.0,,121852.0,
211,Asia,LKA,Sri Lanka,Colombo,7.00000000,81.00000000,2024-08-04,672798.0,1.0,16907.0,0.0
212,Africa,SDN,Sudan,Khartoum,15.00000000,30.00000000,2024-08-04,63993.0,0.0,5046.0,0.0
213,South America,SUR,Suriname,Paramaribo,4.00000000,-56.00000000,2024-08-04,82501.0,0.0,1406.0,0.0
214,Europe,SWE,Sweden,Stockholm,62.00000000,15.00000000,2024-08-04,2755181.0,630.0,27399.0,28.0
215,Europe,CHE,Switzerland,Bern,47.00000000,8.00000000,2024-08-04,4457868.0,426.0,14170.0,0.0
216,Asia,SYR,Syria,Damascus,35.00000000,38.00000000,2024-08-04,57423.0,0.0,3163.0,0.0
217,Asia,TJK,Tajikistan,Dushanbe,39.00000000,71.00000000,2024-08-04,17786.0,0.0,125.0,0.0
218,Africa,TZA,Tanzania,Dodoma,-6.00000000,35.00000000,2024-08-04,43230.0,0.0,846.0,0.0
219,Asia,THA,Thailand,Bangkok,15.00000000,100.00000000,2024-08-04,4799180.0,560.0,34715.0,1.0
220,Africa,TGO,Togo,Lome,8.00000000,1.16666666,2024-08-04,39530.0,0.0,290.0,0.0
221,Oceania,TKL,Tokelau,,-9.00000000,-172.00000000,2024-08-04,80.0,0.0,0.0,0.0
222,Oceania,TON,Tonga,Nuku'alofa,-20.00000000,-175.00000000,2024-08-04,16976.0,0.0,12.0,0.0
223,North America,TTO,Trinidad and Tobago,Port of Spain,11.00000000,-61.00000000,2024-08-04,191496.0,0.0,4390.0,0.0
224,Africa,TUN,Tunisia,Tunis,34.00000000,9.00000000,2024-08-04,1153361.0,0.0,29423.0,0.0
225,Asia,TUR,Turkey,Ankara,39.00000000,35.00000000,2024-08-04,17004718.0,0.0,101419.0,0.0
226,Asia,TKM,Turkmenistan,Ashgabat,40.00000000,60.00000000,2024-08-04,0.0,0.0,0.0,0.0
227,North America,TCA,Turks and Caicos Islands,Cockburn Town,21.75000000,-71.58333333,2024-08-04,6805.0,0.0,40.0,0.0
228,Oceania,TUV,Tuvalu,Funafuti,-8.00000000,178.00000000,2024-08-04,2943.0,0.0,1.0,0.0
229,Africa,UGA,Uganda,Kampala,1.00000000,32.00000000,2024-08-04,172154.0,0.0,3632.0,0.0
230,Europe,UKR,Ukraine,Kyiv,49.00000000,32.00000000,2024-08-04,5532777.0,171.0,109920.0,0.0
231,Asia,ARE,United Arab Emirates,Abu Dhabi,24.00000000,54.00000000,2024-08-04,1067030.0,0.0,2349.0,0.0
232,Europe,GBR,United Kingdom,London,54.00000000,-2.00000000,2024-08-04,24974629.0,3400.0,232112.0,0.0
233,North America,USA,United States,Washington,38.00000000,-97.00000000,2024-08-04,103436829.0,,1193165.0,619.0
234,North America,VIR,United States Virgin Islands,Charlotte Amalie,18.34000000,-64.93000000,2024-08-04,25389.0,0.0,132.0,0.0
235,,OWID_UMC,Upper-middle-income countries,,,,2024-08-14,251753518.0,14277.0,2824452.0,29.0
236,South America,URY,Uruguay,Montevideo,-33.00000000,-56.00000000,2024-08-04,1041346.0,15.0,7682.0,0.0
237,Asia,UZB,Uzbekistan,Tashkent,41.00000000,64.00000000,2024-08-04,175081.0,0.0,1016.0,0.0
238,Oceania,VUT,Vanuatu,Port Vila,-16.00000000,167.00000000,2024-08-04,12019.0,0.0,14.0,0.0
239,Europe,VAT,Vatican,Vatican City,41.90000000,12.45000000,2024-08-04,26.0,0.0,0.0,0.0
240,South America,VEN,Venezuela,Caracas,8.00000000,-66.00000000,2024-08-04,552695.0,0.0,5856.0,0.0
241,Asia,VNM,Vietnam,Hanoi,16.16666666,107.83333333,2024-08-04,11624000.0,0.0,43206.0,0.0
242,Oceania,WLF,Wallis and Futuna,Mata Utu,-13.30000000,-176.20000000,2024-08-04,3760.0,0.0,9.0,0.0
243,,OWID_WRL,World,,,,2024-08-14,775866783.0,47169.0,7057132.0,815.0
244,Asia,YEM,Yemen,Sanaa,15.00000000,48.00000000,2024-08-04,11945.0,0.0,2159.0,0.0
245,Africa,ZMB,Zambia,Lusaka,-15.00000000,30.00000000,2024-08-04,349842.0,18.0,4077.0,0.0
246,Africa,ZWE,Zimbabwe,Harare,-20.00000000,30.00000000,2024-08-04,266386.0,0.0,5740.0,0.0
